Code,Streets,LGA,lat,lon,Print_Count,Installation_Status,Installation_Points
NAS_321,ZAKARI SADIQ LINK,NASSARAWA,11.99574036,8.57262602,2,Installed,2
NAS_76,BICHI LINK,NASSARAWA,11.99574036,8.57262602,2,Installed,2
NAS_259,SALIHU GALEEL STREET,NASSARAWA,11.9951966,8.572100486,2,Installed,2
NAS_57,B.A ABDULLAHI LINK,NASSARAWA,11.99574252,8.571568649,2,Installed,1
NAS_18,ABDULRAHMAN ABUBAKAR LINK,NASSARAWA,11.99688214,8.570981421,2,Installed,3
NAS_293,UMAR IDRIS ILLO STREET,NASSARAWA,11.99690254,8.570448482,2,Installed,2
NAS_98,DR ABDU GREMA LINK,NASSARAWA,11.99690254,8.570448482,2,Installed,2
NAS_319,YUSUF KWARI LINK,NASSARAWA,11.99690254,8.570448482,2,Installed,2
NAS_62,BADAWA LAYOUT ROAD,NASSARAWA,11.997439,8.570485,2,Installed,2
NAS_261,SALISU MAI BOREHOLE STREET,NASSARAWA,11.9946441,8.577747732,2,Installed,2
TAR_55,HAMISU SULAIMAN MAJIA ROAD,TARAUNI,11.99742627,8.572763275,2,Pending,0
NAS_202,M.J. LAWAL STREET,NASSARAWA,11.99681771,8.573178985,2,Installed,2
NAS_133,HABIBA YAHAYA LINK,NASSARAWA,11.9968042,8.574644635,2,Installed,2
NAS_264,SANI IDI DAN FULANI STREET,NASSARAWA,11.99681771,8.573178985,2,Installed,2
NAS_158,JIBRIN ABDU STREET,NASSARAWA,11.99629225,8.574767172,2,Installed,2
NAS_9,A.M. PANDA STREET,NASSARAWA,11.99703724,8.575485903,2,Installed,2
NAS_215,MALAM MADORI STREET,NASSARAWA,11.99629225,8.574767172,2,Installed,2
NAS_127,GIDAN KARA LINK,NASSARAWA,11.99703724,8.575485903,2,Installed,2
NAS_8,A MAI GORO SAGAGI LINK,NASSARAWA,11.99661415,8.576753157,2,Installed,2
NAS_26,ADEOLA STREET,NASSARAWA,11.99609961,8.576884472,2,Installed,1
NAS_317,YUSUF ABDULLAHI STREET,NASSARAWA,11.99609961,8.576884472,2,Installed,2
NAS_240,NASIRU ALI YAKASAI STREET,NASSARAWA,11.99558742,8.576992003,2,Installed,2
NAS_27,ADNAN BABAYOLA LINK,NASSARAWA,11.9946441,8.577747732,2,Installed,2
NAS_308,YABUKU ABDUL PAIKO LINK,NASSARAWA,11.9946441,8.577747732,2,Installed,2
NAS_265,SANI SHUAIBU STREET,NASSARAWA,8.57793499,8.57793499,2,Installed,2
NAS_229,MUSA KALLA STREET,NASSARAWA,11.9944188,8.576851271,2,Installed,2
NAS_70,BARRISTER ISA BELLO STREET,NASSARAWA,11.9944188,8.576738,2,Installed,3
NAS_39,ALI ZANGO STREET,NASSARAWA,11.99474593,8.575148236,2,Installed,2
NAS_249,RENNER STREET,NASSARAWA,11.99522271,8.575065686,2,Installed,2
NAS_99,DR. ALI IDI LINK,NASSARAWA,11.99463819,8.573816899,2,Installed,2
NAS_37,ALI ALI MUHAMMAD LINK,NASSARAWA,11.99392454,8.573818338,2,Installed,2
NAS_135,HAFSAT AVENUE,NASSARAWA,11.99355,8.575157,2,Installed,2
NAS_58,B Z TAGWAI STREET,NASSARAWA,11.99355,8.575157,2,Installed,3
NAS_242,NATIONAL AVENUE,NASSARAWA,11.99410421,8.572088085,2,Installed,2
NAS_107,ENGR. GAMBO ABUBAKAR STREET,NASSARAWA,11.9944163,8.572159484,2,Installed,2
NAS_241,NASIRU SAMINU LINK,NASSARAWA,11.99357844,8.572088571,2,Installed,2
NAS_156,IZZUDDEEN ABUBAKAR LINK,NASSARAWA,11.9944163,8.572159484,2,Installed,2
NAS_212,MAIMUNA LINK,NASSARAWA,11.9918821,8.571844057,2,Installed,2
NAS_43,AMB. BUBA AHMED STREET,NASSARAWA,11.9913217,8.571844703,2,Installed,2
NAS_225,MUH'D FAITH KARUBE STREET,NASSARAWA,11.9913217,8.571844703,2,Installed,2
NAS_238,NA'ANNABI AHMED STREET,NASSARAWA,11.99131258,8.57239211,2,Pending,0
NAS_273,SIR PETER OBEBI CLOSE,NASSARAWA,11.9974744,8.577715239,1,Installed,1
NAS_235,MUSTAPHA TELA CLOSE,NASSARAWA,11.98011822,8.575006416,1,Installed,1
NAS_236,MUSTAPHA TELA STREET,NASSARAWA,11.97986742,8.574172234,2,Installed,1
NAS_113,GARBA KAZAURE STREET,NASSARAWA,11.97986742,8.574172234,2,Installed,2
NAS_97,DPO STREET,NASSARAWA,11.98100479,8.573148892,2,Pending,0
NAS_239,NASIR WANZAN STREET,NASSARAWA,11.981627,8.574221,2,Pending,0
NAS_178,KWANYAWA STREET,NASSARAWA,11.98083725,8.576637473,2,Installed,2
NAS_322,ZANNAN ALBASU STREET,NASSARAWA,11.98164142,8.574736837,2,Installed,2
NAS_86,DAN GAYA STREET,NASSARAWA,11.98247,8.576927,2,Installed,2
NAS_56,AYUBA MAI MAI STREET,NASSARAWA,11.98080355,8.578230519,2,Installed,2
NAS_192,LAYIN MADORA STREET,NASSARAWA,11.98058,8.579276,2,Installed,2
NAS_13,ABBAS MAI WANKI STREET,NASSARAWA,11.98058,8.579276,2,Pending,0
NAS_54,AUYO STREET,NASSARAWA,11.97620852,8.577720738,2,Installed,2
NAS_53,AUDU SAYE STREET,NASSARAWA,11.97544946,8.574808166,2,Installed,2
TAR_129,SANI GWARZO STREET,TARAUNI,11.97544946,8.574808166,2,Pending,0
NAS_167,KAWO MAIGARI ROAD,NASSARAWA,11.97607144,8.57441855,2,Installed,1
FAG_43,ILARO ROAD,FAGGE,12.012207,8.543018,2,Installed,2
FAG_5,FRANCE ROAD,FAGGE,12.01467,8.543395,18,Installed,2
FAG_28,DANBATTA WAY,FAGGE,12.016637,8.542556,2,Installed,2
FAG_91,YORUBA ROAD,FAGGE,12.016679,8.532632,2,Installed,2
FAG_33,EYE HOSPITAL ROAD,FAGGE,12.017972,8.545547,2,Installed,2
FAG_44,INDEPENDENCE ROAD,FAGGE,12.022057,8.577282,7,Installed,2
FAG_80,SANI MARSHAL ROAD,FAGGE,12.024801,8.543472,10,Installed,2
NAS_219,MILLER ROAD,NASSARAWA,12.016305,8.552146,2,Installed,2
FAG_26,CLUB ROAD,FAGGE,12.00872278,8.549467545,2,Pending,0
FAG_54,MAGANDA ROAD,FAGGE,12.013485,8.550258,2,Installed,2
NAS_220,MISSION ROAD,NASSARAWA,12.018372,8.544435,2,Installed,2
FAG_71,PARK ROAD,FAGGE,12.008095,8.540242,2,Installed,2
FAG_15,BANK ROAD,FAGGE,12.003562,8.537469,2,Installed,2
FAG_61,NIGER STREET,FAGGE,12.009424,8.541584,2,Installed,2
FAG_40,IGBO ROAD,FAGGE,12.010155,8.539821,2,Installed,2
FAG_19,BELLO ROAD,FAGGE,12.010179,8.538681,2,Installed,2
FAG_56,MAIKANO DUTSE ROAD,FAGGE,12.012081,8.539767,2,Pending,0
FAG_90,YOLAWA ROAD,FAGGE,12.006378,8.53875,2,Installed,2
FAG_79,SANI ABACHA WAY,FAGGE,12.014038,8.543422,3,Installed,1
NAS_52,AUDU BAKO WAY,NASSARAWA,12.003936,8.543085,9,Installed,2
TAR_44,DR BALA MUHAMMAD ROAD,TARAUNI,11.98646667,8.543333333,2,Installed,1
TAR_40,DAN HAUSA ROAD,TARAUNI,11.98653333,8.544566667,2,Pending,0
TAR_37,COMMISSIONER ROAD,TARAUNI,11.985394,8.5449694,2,Pending,0
NAS_64,BALA MUHAMMED WAY,NASSARAWA,11.98362809,8.543247097,2,Pending,0
TAR_32,BELLO KANO STREET,TARAUNI,11.98278142,8.545207104,2,Pending,0
TAR_74,KASHIM IBRAHIM WAY,TARAUNI,11.982097,8.5466639,2,Pending,0
TAR_33,BELLO TANKO TERRACE,TARAUNI,11.98076667,8.5446,2,Pending,0
TAR_71,JUSTICE DAHIRU MUSTAPHA ROAD,TARAUNI,11.96822,8.553611,2,Installed,2
TAR_62,IBRAHIM DABO ROAD,TARAUNI,11.979475,8.54441,2,Installed,2
TAR_34,BORNO AVENUE,TARAUNI,11.98581181,8.540936673,2,Pending,0
TAR_67,IYAKA ROAD,TARAUNI,11.98710793,8.541475141,3,Pending,0
NAS_96,DORAWA ROAD,NASSARAWA,11.989198,8.541985,2,Installed,2
NAS_61,BABURA ROAD,NASSARAWA,11.99044878,8.541678079,2,Pending,0
NAS_159,JIGAWA ROAD,NASSARAWA,11.990016,8.544262,2,Installed,2
NAS_313,YANDUTSE ROAD,NASSARAWA,11.98846925,8.546244344,2,Pending,0
NAS_199,LUGARD AVENUE,NASSARAWA,11.9890317,8.546970999,2,Pending,0
NAS_31,AHMADU BELLO WAY,NASSARAWA,12.005735,8.561053,14,Installed,2
NAS_274,SKY STREET,NASSARAWA,11.98991749,8.538798478,2,Pending,0
NAS_243,POLICE WALK WAY,NASSARAWA,11.99611,8.550377,2,Installed,2
FAG_38,NEW HOSPITAL ROAD,FAGGE,11.99589,8.550377,2,Installed,3
NAS_218,MEDICAL AVENUE,NASSARAWA,11.99759,8.551249,2,Installed,3
NAS_270,SHADAI CLOSE,NASSARAWA,11.00024,8.5504,1,Installed,1
NAS_12,ABBAS LINK,NASSARAWA,12.000652,8.552676,2,Installed,2
FAG_84,SULE GAYA ROAD,FAGGE,12.020436,8.564263,2,Installed,2
NAS_217,MAYU ROAD,NASSARAWA,11.99953262,8.546634259,2,Installed,2
NAS_198,LODGE ROAD,NASSARAWA,11.99392,8.549676,3,Installed,2
NAS_124,GIDADO MUKHTAR LINK,NASSARAWA,11.992248,8.552105,2,Installed,2
NAS_89,DANBAZAU ROAD,NASSARAWA,11.9896101,8.550353053,1,Installed,2
NAS_179,LAFIA ROAD,NASSARAWA,11.98893,8.554002,4,Installed,2
NAS_176,KWAIRANGA ROAD,NASSARAWA,11.990852,8.555926,2,Installed,3
NAS_42,ALU AVENUE,NASSARAWA,11.99269,8.557714,1,Installed,3
NAS_80,CAPT. ABDULLAHI LINK,NASSARAWA,11.99406272,8.558406038,2,Pending,0
NAS_129,GIMBA UMAR CLOSE,NASSARAWA,11.99605,8.55563,1,Installed,1
NAS_303,VAN GEORGE CLOSE,NASSARAWA,12.02655485,8.526920983,1,Installed,1
FAG_24,CEASER AVENUE,FAGGE,12.02655485,8.526920983,2,Installed,2
FAG_37,HAJJ CAMP ROAD,FAGGE,12.02808936,8.523780445,2,Installed,2
FAG_92,ZUNGERU ROAD,FAGGE,12.0279379,8.525757051,9,Installed,2
TAR_155,WHETHERHEAD STREET,TARAUNI,12.02808936,8.523780445,2,Installed,2
NAS_106,EGBE ROAD,NASSARAWA,12.0265397,8.529386867,2,Installed,2
TAR_133,SARKIN YAKI STREET,TARAUNI,12.02574169,8.529183174,2,Installed,2
NAS_110,FREETOWN STREET,NASSARAWA,12.0265397,8.529386867,2,Installed,2
FAG_60,NGURU AVENUE,FAGGE,12.02738657,8.529927719,2,Installed,2
FAG_65,ODUTOLA STREET,FAGGE,12.02253483,8.516379784,2,Installed,2
FAG_34,FEDERAL SECRETARIAT ROAD,FAGGE,12.02739254,8.529384879,2,Installed,2
FAG_8,AIRPORT ROAD,FAGGE,12.03017415,8.51158372,30,Installed,2
FAG_72,PEACE ESTATE ROAD,FAGGE,12.03017415,8.51158372,2,Pending,0
TAR_84,LAYIN LAJAWA ROAD,TARAUNI,11.957726,8.54176,2,Installed,1
TAR_92,MAI HULA STREET,TARAUNI,11.960924,8.538695,2,Installed,2
TAR_58,HASSAN GWARZO STREET,TARAUNI,11.960993,8.538695,2,Installed,1
TAR_147,TUDUN MALIKI ROAD,TARAUNI,11.965142,8.528592,2,Installed,2
TAR_149,UMAR TURAWA STREET,TARAUNI,11.95483,8.539685,2,Installed,2
TAR_113,MUHAMMAD SHESHE STREET,TARAUNI,11.9558,8.540515,2,Installed,2
TAR_88,ISAH KAITA ROAD,TARAUNI,11.967627,8.536561,2,Installed,3
NAS_4,17TH STREET,NASSARAWA,11.96965629,8.535617498,2,Pending,0
TAR_29,BAWO ROAD,TARAUNI,11.96756,8.536651,2,Installed,2
TAR_1,19TH LINK,TARAUNI,11.97015,8.537989,2,Installed,1
TAR_19,AUTAN BAWO STREET,TARAUNI,11.970492,8.53557,2,Installed,2
TAR_115,NASIRU KABARA STREET,TARAUNI,11.97211,8.533301,2,Installed,1
TAR_83,LAYIN KOTO STREET,TARAUNI,11.96902064,8.531546264,2,Pending,0
TAR_59,HAUSAWA GIWA STREET,TARAUNI,11.96598352,8.529452009,2,Pending,0
NAS_188,LAWAN NA'ALLAH STREET,NASSARAWA,11.9748,8.53734,2,Installed,2
NAS_150,IBRAHIM UMAR STREET,NASSARAWA,11.97592,8.538696,2,Installed,2
NAS_169,KAZAURE ROAD,NASSARAWA,12.008886,8.553269,2,Installed,2
NAS_21,ADAM ABUBAKAR GWARZO ROAD,NASSARAWA,11.976044,8.566961,2,Pending,0
NAS_22,ADAMU BAKER STREET,NASSARAWA,11.975455,8.569724,2,Installed,2
TAR_52,GOBA LINK,TARAUNI,11.97519305,8.568088497,2,Pending,0
NAS_71,BASHIR DALHATU STREET,NASSARAWA,11.97906117,8.56906821,2,Installed,2
NAS_114,GARBA SHEHU STREET,NASSARAWA,11.97489435,8.57097267,2,Installed,2
NAS_28,AGWAGWA STREET,NASSARAWA,11.977971,8.573153,2,Installed,2
NAS_177,KWANAR MAGGI STREET,NASSARAWA,11.980774,8.571182,2,Installed,2
NAS_123,GEN. BASHIR MAGASHI ROAD,NASSARAWA,11.98618016,8.56675745,2,Installed,2
NAS_203,MA'AJIN WATARI STREET,NASSARAWA,11.978138,8.568321,2,Installed,2
NAS_143,I. MA SAMA CLOSE,NASSARAWA,11.979816,8.565393,1,Installed,1
NAS_144,IBRAHIM EL-TAYYIB CLOSE,NASSARAWA,11.982466,8.565883,1,Installed,1
NAS_256,SABARA AVENUE,NASSARAWA,11.983503,8.566164,2,Installed,2
TAR_75,KIYASHI AVENUE,TARAUNI,11.9763659,8.5645873,2,Installed,2
TAR_39,DABINO AVENUE,TARAUNI,11.974726,8.566192,2,Installed,2
TAR_164,YUSUF MAITAMA SULE AVENUE,TARAUNI,11.992206,8.55006,2,Installed,2
TAR_138,SHEHU KAZAURE STREET,TARAUNI,11.97588783,8.56692982,2,Installed,2
TAR_28,BASHIR SULE MAITAMA AVENUE,TARAUNI,11.974086,8.565602,2,Installed,2
TAR_11,ALFA WALI STREET,TARAUNI,11.970065,8.568329,2,Installed,2
NAS_153,ILIYASU MIJINYAWA LINK,NASSARAWA,12.00899557,8.569654029,2,Pending,0
NAS_104,DUTSE ROAD,NASSARAWA,12.01048788,8.569714329,2,Installed,2
NAS_168,KAWU MAI WANKI STREET,NASSARAWA,12.006203,8.576729,2,Installed,2
NAS_101,DUNGURAWA AVENUE,NASSARAWA,12.01062801,8.572403465,2,Pending,0
NAS_208,MAHUTA STREET,NASSARAWA,12.0091758,8.572023558,2,Pending,0
NAS_195,LAYIN SHESHE STREET,NASSARAWA,12.00778317,8.570633157,2,Pending,0
NAS_69,BARGERY ROAD,NASSARAWA,12.007488,8.568696,2,Installed,2
NAS_72,BATAWA ROAD,NASSARAWA,12.00738,8.569329,2,Installed,2
NAS_320,YUSUF ROAD,NASSARAWA,12.01547,8.568268,2,Installed,2
NAS_175,KUWATAGONI CLOSE,NASSARAWA,12.00383355,8.567538665,1,Pending,0
NAS_252,RWAFF ROAD,NASSARAWA,12.006978,8.564987,2,Installed,2
NAS_297,UMARU BABURA ROAD,NASSARAWA,12.008264,8.550679,2,Installed,2
NAS_25,ADAMU LAUYA STREET,NASSARAWA,12.01242,8.574354,2,Pending,0
NAS_79,CAPITAL INSURANCE STREET,NASSARAWA,12.01132461,8.575289002,2,Pending,0
NAS_165,KAWAJI STREET,NASSARAWA,12.00711442,8.572900345,2,Pending,0
NAS_278,SULE BOMPAI STREET,NASSARAWA,12.01756,8.574209,2,Installed,2
NAS_280,SURAJO MARSHAL LINK,NASSARAWA,11.9936451,8.566124656,2,Installed,3
NAS_74,BELLO ADOKE CLOSE,NASSARAWA,11.99363863,8.565262614,1,Installed,2
NAS_311,YAKUBU SULEIMAN LINK,NASSARAWA,11.993615,8.566788,2,Installed,2
NAS_268,SARDAUNA CRESCENT,NASSARAWA,8.563286803,8.563286803,19,Installed,2
NAS_185,LARABA ROAD,NASSARAWA,11.988553,8.568056,2,Installed,2
NAS_51,ASMA'U YAKUBU STREET,NASSARAWA,11.98976914,8.563140889,2,Pending,0
NAS_279,SULTAN ROAD,NASSARAWA,11.98935616,8.561689638,3,Installed,1
NAS_182,LAMIDO TERRACE,NASSARAWA,11.98732404,8.56646193,2,Installed,2
NAS_214,MALAM BUHARI LINK,NASSARAWA,11.987259,8.567419,2,Installed,3
NAS_95,DAUDA BIRMA STREET,NASSARAWA,11.98857,8.568718,2,Installed,2
NAS_24,ADAMU JOJI ROAD,NASSARAWA,11.98758884,8.568566542,2,Installed,2
NAS_145,IBRAHIM GODI STREET,NASSARAWA,11.98591722,8.568032292,2,Installed,4
NAS_307,WRECCA ROAD,NASSARAWA,11.979822,8.567868,2,Installed,2
NAS_88,DAN WUDIL LINK,NASSARAWA,11.988588,8.56934,2,Installed,1
NAS_128,GIGINYU BARRACKS ROAD,NASSARAWA,11.992911,8.56875,2,Installed,2
NAS_50,ASMA'U LINK,NASSARAWA,11.990878,8.571197,2,Installed,2
NAS_20,ADAKAWA LINK,NASSARAWA,11.99134,8.568862,2,Installed,2
NAS_94,DARMA LINK,NASSARAWA,11.992911,8.569572,2,Installed,2
NAS_323,ZUBAIRU INUWA LINK,NASSARAWA,11.992945,8.568163,2,Installed,2
NAS_19,ABUBAKAR TSAV STREET,NASSARAWA,11.993591,8.568826,2,Installed,1
NAS_116,GARBA YAKASAI LINK,NASSARAWA,11.993546,8.569171,2,Installed,1
NAS_316,YOLAWA LINK,NASSARAWA,11.991806,8.571215,2,Installed,2
NAS_161,KABO LINK,NASSARAWA,11.991806,8.571215,2,Installed,2
NAS_204,MADINA LINK,NASSARAWA,11.98885116,8.571847548,2,Installed,2
NAS_290,UMARU BABURA LINK,NASSARAWA,11.988879,8.571841,2,Installed,1
NAS_292,UMAR GALADIMA ROAD,NASSARAWA,11.992978,8.571336,2,Installed,1
NAS_260,SALIHU ZAWA'I UBA AVENUE,NASSARAWA,11.99617532,8.568498658,2,Installed,1
NAS_232,MUSA TUDUN WADA LINK,NASSARAWA,11.99703864,8.567789799,2,Installed,2
NAS_251,RUFAI GARBA ROAD,NASSARAWA,11.99703864,8.567789799,2,Pending,0
NAS_29,AHAD CRESCENT,NASSARAWA,11.997021,8.566665,2,Installed,1
NAS_60,BABAN KWARI ROAD,NASSARAWA,11.99716,8.567817,2,Installed,2
NAS_255,SA'ADINA H DANTATA LINK,NASSARAWA,11.9984818,8.564489692,2,Pending,0
NAS_206,MADUGU LINK,NASSARAWA,11.99355853,8.568775281,2,Installed,1
NAS_234,MUSTAFA GARBA LINK,NASSARAWA,11.99595332,8.562854794,2,Pending,0
NAS_157,JABBO ROAD,NASSARAWA,11.99424093,8.560425784,2,Installed,2
NAS_269,SARDAUNA HABIB AVENUE,NASSARAWA,11.98568576,8.560242925,2,Installed,2
FAG_86,TREE LANE,FAGGE,11.9985,8.535844,2,Installed,3
FAG_10,AJASA ROAD,FAGGE,12.0004,8.535972,2,Installed,3
NAS_32,AJASA YAN SIMINTI ROAD,NASSARAWA,11.998402,8.535807,2,Installed,2
FAG_45,INUWA WADA LANE,FAGGE,12.0005,8.535439,2,Installed,2
NAS_81,CIVIC CENTRE ROAD,NASSARAWA,12.0006,8.53469,5,Installed,2
FAG_87,USMAN LIMAN ROAD,FAGGE,12.00245,8.53753,2,Installed,2
FAG_53,LAGOS STREET,FAGGE,12.004751,8.541733,2,Installed,2
FAG_11,ALWALI ROAD,FAGGE,12.00256,8.537688,2,Installed,2
FAG_75,REVENUE ROAD,FAGGE,12.0041,8.538057,2,Installed,2
FAG_20,BIDA ROAD,FAGGE,12.0005,8.537457,2,Installed,2
NAS_318,YUSUF KURFI STREET,NASSARAWA,11.9982,8.53958,2,Installed,2
TAR_153,USMANIYYA LINK,TARAUNI,11.991738,8.536749,2,Installed,2
NAS_228,MUSA FAGGE LINK,NASSARAWA,11.989044,8.55301,2,Installed,2
NAS_154,ISLAMIYYA LINK,NASSARAWA,11.99167904,8.536783768,2,Pending,0
FAG_63,OBASANJO LINK,FAGGE,11.99003374,8.534148784,2,Pending,0
FAG_64,OBASANJO ROAD,FAGGE,11.99,8.53414,2,Installed,2
NAS_276,STATE ROAD,NASSARAWA,11.986422,8.550654,5,Installed,2
FAG_31,EMIR ROAD,FAGGE,11.9904,8.53185,2,Installed,1
NAS_78,BUK ROAD,NASSARAWA,11.986771,8.481079,2,Installed,2
NAS_275,STADIUM ROAD,NASSARAWA,11.9918,8.53252,2,Installed,2
FAG_41,IBRAHIM TAIWO ROAD,FAGGE,11.9895,8.53414,7,Installed,4
FAG_67,OLUSEGUN OBASANJO WAY,FAGGE,11.99348,8.53355,2,Installed,2
NAS_216,MATAN FADA ROAD,NASSARAWA,11.98717,8.542012,4,Installed,2
NAS_187,LAWAN ATANA ROAD,NASSARAWA,11.9936,8.543319,2,Installed,2
NAS_282,TAMANDU ROAD,NASSARAWA,11.99542,8.543925,2,Installed,2
NAS_281,TAMANDU CLOSE,NASSARAWA,11.99758,8.544588,1,Installed,1
NAS_49,ARAKAN ROAD,NASSARAWA,11.00123,8.544757,2,Installed,2
NAS_209,MAI GATARI STREET,NASSARAWA,11.985094,8.581287,2,Installed,1
NAS_138,HIGH TENSION LINE,NASSARAWA,11.98573844,8.583746399,2,Installed,1
NAS_15,ABDUL'AZIZ HARUNA STREET,NASSARAWA,11.98813639,8.584792179,2,Installed,2
NAS_142,HOTORO TINSHAMA ROAD,NASSARAWA,11.98813639,8.584792179,2,Installed,1
TAR_17,AMANALLAH STREET,TARAUNI,11.96657,8.544861,2,Installed,1
TAR_145,TAHIR ROAD,TARAUNI,11.96883597,8.54956928,2,Installed,2
TAR_24,BALA MAMSA STREET,TARAUNI,11.966195,8.545087,2,Installed,2
TAR_73,KARKASARA WAY,TARAUNI,11.94322302,8.56047988,2,Installed,2
TAR_63,INUWA DUTSE STREET,TARAUNI,11.95859775,8.54121536,2,Installed,2
TAR_121,PRESS ROAD,TARAUNI,11.969053,8.546077,2,Installed,2
TAR_54,GYADI - GYADI PRIMARY SCHOOL ROAD,TARAUNI,11.968189,8.546528,2,Installed,2
TAR_85,LAYIN MAI KOSAI ROAD,TARAUNI,11.96873487,8.54543689,2,Installed,1
TAR_118,NUPE ROAD,TARAUNI,11.96646151,8.54756354,2,Installed,2
TAR_21,BABA KOKI STREET,TARAUNI,11.96874352,8.54634982,2,Installed,2
TAR_72,KANKAROFI STREET,TARAUNI,11.96864193,8.54679281,2,Installed,2
TAR_119,NURA TURAKI STREET,TARAUNI,11.96968177,8.54875378,2,Installed,2
TAR_35,BUDAIYA ROAD,TARAUNI,11.97081882,8.542248686,2,Pending,0
TAR_20,BABA IMPOSSIBLE STREET,TARAUNI,11.968107,8.554487,2,Installed,2
FAG_89,WARRI ROAD,FAGGE,12.022879,8.534815,2,Installed,2
FAG_32,ENUGU ROAD,FAGGE,12.022094,8.532656,2,Installed,1
FAG_4,ABEOKUTA ROAD,FAGGE,12.021303,8.532653,2,Installed,2
FAG_9,AITKEN ROAD,FAGGE,12.020508,8.532648,2,Installed,2
FAG_57,MIDDLE ROAD,FAGGE,12.019679,8.5347,2,Installed,2
FAG_82,SANIN GIWA STREET,FAGGE,12.018433,8.530953,2,Installed,2
FAG_42,IJEBU ROAD,FAGGE,12.024255,8.53951,2,Installed,2
FAG_83,SANUSI STREET,FAGGE,12.014488,8.531901,2,Installed,2
FAG_77,SABON GARI ROAD,FAGGE,12.02733444,8.536181948,2,Pending,0
FAG_55,MAHOGANY STREET,FAGGE,12.032488,8.535432,2,Installed,2
FAG_46,IROKO AVENUE,FAGGE,12.030332,8.534262,2,Installed,2
FAG_48,KABBA STREET,FAGGE,12.031109,8.535521,2,Installed,2
NAS_66,BALLAT HUGHES AVENUE,NASSARAWA,12.025813,8.52953,2,Installed,2
NAS_14,ABBAS ROAD,NASSARAWA,12.02356238,8.540009952,2,Pending,0
FAG_51,KING'S GARDEN ROAD,FAGGE,12.026146,8.543843,2,Installed,2
FAG_22,BROTHER STREET,FAGGE,12.023994,8.547382,2,Installed,2
TAR_135,SERVICE STREET,TARAUNI,11.941463,8.556532,2,Installed,1
TAR_162,YAR AKWA LAYIN CEMENT STREET,TARAUNI,11.941608,8.556957,2,Installed,2
NAS_118,GARKI ROAD,NASSARAWA,11.99175,8.541601,2,Installed,2
TAR_97,MAL ADAM STREET,TARAUNI,11.941359,8.560149,2,Installed,2
TAR_122,R KABIRU STREET,TARAUNI,11.93667304,8.55996523,2,Installed,2
TAR_126,SABON MASALLACI STREET,TARAUNI,11.93667304,8.55996523,2,Pending,0
TAR_156,YAKUBU BOKOTI STREET,TARAUNI,11.939236,8.559017,2,Installed,2
TAR_15,ALMAGHILI STREET,TARAUNI,11.93855679,8.555333744,2,Installed,2
TAR_161,YAR AKWA B LAYIN HARU STREET,TARAUNI,11.93855679,8.555333744,2,Pending,0
TAR_103,MAL. KHIDIR BASHIR STREET,TARAUNI,11.941005,8.555391,2,Installed,2
TAR_12,ALHAJI BALA STREET,TARAUNI,11.965592,8.537351,2,Installed,2
TAR_46,FAROUK RABIU ROAD,TARAUNI,11.942822,8.557071,2,Installed,2
TAR_13,ALI UNGUWAR GANO STREET,TARAUNI,11.94477125,8.552792516,2,Installed,2
TAR_127,SAGIR W.MAI IYALI STREET,TARAUNI,11.944812,8.552836,2,Installed,1
TAR_116,NAZIRU SARKIN WAKA STREET,TARAUNI,11.94667742,8.551740066,2,Installed,2
TAR_25,BARDE STREET,TARAUNI,11.946758,8.551796,2,Installed,2
TAR_91,MAI DOKI STREET,TARAUNI,11.94840238,8.55058335,2,Pending,0
TAR_30,BAYAN GANDU ROAD,TARAUNI,11.949135,8.550088,2,Installed,2
TAR_42,DARMANAWA ROAD,TARAUNI,11.952544,8.553714,2,Installed,2
TAR_87,LAYIN MAKABARTA ROAD,TARAUNI,11.949729,8.55448,2,Installed,2
TAR_158,YAN AWAKI ROAD,TARAUNI,11.94843024,8.565873688,2,Pending,0
TAR_146,TARAUNI MARKET ROAD,TARAUNI,11.979989,8.560751,2,Installed,2
TAR_89,SARKIN KASUWA STREET,TARAUNI,11.97367,8.560781,2,Installed,2
TAR_107,MASUDU STREET,TARAUNI,11.975984,8.55976,2,Pending,0
TAR_128,SALEH RIMIN GADO STREET,TARAUNI,11.974459,8.56136,2,Installed,2
TAR_136,SHADDA KOKO STREET,TARAUNI,11.97632,8.560657,2,Pending,0
TAR_70,JIBRIL WUDIL STREET,TARAUNI,11.975283,8.561972,2,Installed,2
TAR_43,DAURAWA QUARTERS ROAD,TARAUNI,11.97496389,8.562019444,2,Pending,0
NAS_125,GIDADO ROAD,NASSARAWA,11.985992,8.558057,2,Installed,2
TAR_81,LAYIN GIDAN DANEJI CLOSE,TARAUNI,11.97384281,8.560990795,1,Pending,0
TAR_131,SANI LAWAN STREET,TARAUNI,11.971787,8.558604,2,Installed,2
TAR_99,MAL UZAIRU STREET,TARAUNI,11.97210432,8.557390242,2,Installed,2
TAR_96,MAIRUWA STREET,TARAUNI,12.000658,8.53596,2,Installed,2
NAS_170,KOFI STREET,NASSARAWA,11.9717719,8.555607813,2,Pending,0
TAR_104,MALAMI STREET,TARAUNI,11.968836,8.55718,2,Installed,2
TAR_125,SABBABU STREET,TARAUNI,11.970538,8.556129,2,Installed,2
TAR_108,MUHAMMED BELLO COUNCILLOR STREET,TARAUNI,11.969217,8.557763,2,Installed,2
TAR_5,ADO JA'AFAR STREET,TARAUNI,11.96986,8.559807,2,Installed,2
TAR_163,YAUTAI LINK,TARAUNI,11.970859,8.563453,2,Installed,2
TAR_80,LAYIN FARIN GIDA STREET,TARAUNI,11.968354,8.554858,2,Installed,2
TAR_23,BAGUDU STREET,TARAUNI,11.973788,8.558641,2,Installed,2
TAR_101,MAL. BILYA STREET,TARAUNI,11.977354,8.55877,2,Installed,2
TAR_82,LAYIN GWAN GWAN STREET,TARAUNI,11.976931,8.558882,2,Installed,2
TAR_78,LAUTAI ROAD,TARAUNI,11.962784,8.534278,2,Installed,2
TAR_47,FOUNDATION ROAD,TARAUNI,11.97757,8.549244,2,Installed,2
TAR_45,FARM CENTER ROAD,TARAUNI,11.970588,8.556404,2,Installed,2
TAR_102,MAL. HUSSAINI STREET,TARAUNI,11.97741556,8.558852684,2,Installed,4
TAR_10,ALBAYYANU STREET,TARAUNI,11.97635087,8.559092419,2,Pending,0
TAR_3,ABU DAWAKI STREET,TARAUNI,11.97899377,8.559906259,2,Pending,0
NAS_194,LAYIN MASALLACI STREET,NASSARAWA,11.9757042,8.562106,2,Installed,2
NAS_180,LAMIDO CRESCENT,NASSARAWA,12.002561,8.568747,11,Installed,2
NAS_174,KURA ROAD,NASSARAWA,11.982003,8.562775,2,Installed,2
NAS_207,MAGAJIN RUMFA ROAD,NASSARAWA,11.989596,8.550549,2,Installed,2
TAR_142,SOKOTO ROAD,TARAUNI,11.982783,8.539224,7,Installed,2
TAR_56,HAMZA ABDULLAHI ROAD,TARAUNI,11.981597,8.554994,2,Installed,2
TAR_16,ALPHA ROAD,TARAUNI,11.97997928,8.554804327,2,Pending,0
TAR_117,NUHU ALPA ROAD,TARAUNI,11.978796,8.554918,2,Installed,2
TAR_9,AHMED YEKEDIMA ROAD,TARAUNI,11.978737,8.553091,2,Installed,2
TAR_134,SEN. ISA KACHAKO ROAD,TARAUNI,11.977771,8.553006,2,Installed,3
TAR_4,ADO GWARAM ROAD,TARAUNI,11.977793,8.552058,2,Installed,2
TAR_8,AHMED DAKU ROAD,TARAUNI,11.980294,8.555686,2,Installed,2
NAS_289,TUKUR ROAD,NASSARAWA,12.000738,8.560751,2,Installed,2
NAS_257,SABO BAKIN ZUWO ROAD,NASSARAWA,11.976742,8.56527,7,Installed,2
NAS_67,BARAU DANBATTA LINK,NASSARAWA,12.00944606,8.579130755,2,Installed,2
NAS_112,GAGARAWA STREET,NASSARAWA,12.00944606,8.579130755,2,Pending,0
NAS_68,BARAU DANBATTA ROAD,NASSARAWA,12.00944606,8.579130755,2,Installed,2
NAS_315,YANKABA STREET,NASSARAWA,12.01013057,8.5782424,2,Installed,2
NAS_34,ALH BATURE ABDULAZIZ STREET,NASSARAWA,12.008848,8.576071,2,Installed,2
NAS_162,KALU STREET,NASSARAWA,12.0075823,8.576498611,2,Installed,2
NAS_46,AMINU MODI STREET,NASSARAWA,12.00677333,8.579671587,2,Installed,2
NAS_92,DANWAWU STREET,NASSARAWA,12.00682277,8.580343486,2,Installed,2
NAS_109,FAGWALAWA LINK,NASSARAWA,12.00682277,8.580343486,2,Installed,1
NAS_45,AMINU DANWAWU STREET,NASSARAWA,12.007482,8.579565,2,Installed,2
NAS_314,YANKABA COURT ROAD,NASSARAWA,12.00757803,8.580983076,2,Installed,2
NAS_30,AHMAD ASHAKA STREET,NASSARAWA,12.007482,8.579565,2,Installed,2
NAS_254,SA'AD TANKO STREET,NASSARAWA,12.00873371,8.582101488,2,Installed,2
NAS_291,UMAR DAN AZUMI STREET,NASSARAWA,12.00884832,8.583467756,2,Installed,2
NAS_163,KANYA STREET,NASSARAWA,12.00886496,8.584879093,2,Installed,2
NAS_262,SAMADI STREET,NASSARAWA,12.01026851,8.584834023,2,Installed,2
NAS_263,SANI GARBA STREET,NASSARAWA,12.01260693,8.584768125,2,Installed,2
NAS_294,UMAR KAWAJI STREET,NASSARAWA,12.01315122,8.583331358,2,Installed,2
NAS_250,ROYAL STREET,NASSARAWA,12.01391958,8.583296396,2,Installed,2
NAS_196,LIMAN BASHIR STREET,NASSARAWA,12.01376586,8.580250266,2,Installed,2
NAS_271,SHEHU NA ALLAH STREET,NASSARAWA,12.01427019,8.580254962,2,Installed,2
NAS_222,MUAZU HAMZA STREET,NASSARAWA,12.01376586,8.580250266,2,Installed,2
NAS_115,GARBA UBALE STREET,NASSARAWA,12.01532302,8.576187334,2,Installed,2
NAS_151,IBRAHIM ZUBAIRU STREET,NASSARAWA,12.01543107,8.576785043,2,Installed,2
NAS_306,WASHIR HOSPITAL ROAD,NASSARAWA,12.01532302,8.576187334,2,Installed,2
NAS_173,KURA MUHAMMED STREET,NASSARAWA,12.01900101,8.581625466,2,Installed,2
NAS_266,SANI YARO STREET,NASSARAWA,12.011298,8.581513,2,Installed,2
NAS_59,BABALLE AVENUE,NASSARAWA,12.00527535,8.584665487,2,Pending,0
NAS_100,DR. G.N. HAMZA STREET,NASSARAWA,12.00496662,8.578192962,2,Installed,2
NAS_120,GASHASH CLOSE,NASSARAWA,12.004822,8.55817,1,Installed,1
NAS_121,GASHASH ROAD,NASSARAWA,12.006753,8.558437,2,Installed,2
NAS_147,IBRAHIM JOBE CRESCENT,NASSARAWA,12.004426,8.554717,2,Installed,2
NAS_237,MYONGU ROAD,NASSARAWA,12.003759,8.554211,1,Installed,2
NAS_82,COMMANDANT CLOSE,NASSARAWA,12.003325,8.554214,2,Installed,1
NAS_23,ADAMU DAN KABO CLOSE,NASSARAWA,12.000852,8.556988,2,Installed,1
NAS_171,KORAU ROAD,NASSARAWA,8.567862,11.999743,2,Installed,2
NAS_55,AVM. MUKHTAR MUHAMMAD CLOSE,NASSARAWA,12.003801,8.561049,2,Installed,1
NAS_134,HADEJIA ROAD,NASSARAWA,12.007975,8.549485,23,Installed,2
NAS_227,MURTALA MUHAMMED WAY,NASSARAWA,12.012336,8.526393,2,Installed,2
NAS_75,BICHI CLOSE,NASSARAWA,12.006174,8.55986,1,Installed,1
NAS_77,BOMPAI ROAD,NASSARAWA,12.00792,8.549334,2,Installed,2
NAS_244,PRESIDENT AVENUE,NASSARAWA,12.01183,8.560286,2,Installed,2
NAS_223,MUHAMMED ALI ROAD,NASSARAWA,12.009168,8.55093,2,Installed,4
NAS_287,TUDUNWADA D ROAD,NASSARAWA,12.024645,8.559934,2,Installed,2
NAS_83,COURT HOUSE CLOSE,NASSARAWA,12.01231,8.554084,1,Installed,1
NAS_277,SULAIMAN CRESCENT,NASSARAWA,12.0028,8.561096,4,Installed,2
NAS_305,WADA ALIYU ROAD,NASSARAWA,12.002562,8.564036,2,Installed,2
NAS_181,LAMIDO ROAD,NASSARAWA,11.992041,8.563194,3,Installed,2
NAS_309,YAKUBU AHMED AVENUE,NASSARAWA,12.002788,8.561742,2,Installed,2
FAG_74,POST OFFICE ROAD,FAGGE,12.0105455,8.531620615,4,Pending,0
NAS_111,FULASKO STREET,NASSARAWA,12.01033989,8.529633241,2,Pending,0
TAR_64,INUWA SANI STREET,TARAUNI,12.00776628,8.529850435,2,Pending,0
FAG_81,SANI UNGOGGO ROAD,FAGGE,12.00569228,8.532885957,2,Installed,2
NAS_17,ABDULLAHI WASE ROAD,NASSARAWA,12.001056,8.52684,2,Installed,1
FAG_16,BEIRUT ROAD,FAGGE,12.00407027,8.534004219,2,Pending,0
TAR_159,YAN FATA STREET,TARAUNI,12.00413112,8.534790625,2,Pending,0
NAS_300,UNITY ROAD,NASSARAWA,12.0026072,8.532088277,2,Installed,1
FAG_3,ABBALE STREET,FAGGE,12.011523,8.527867,2,Installed,1
FAG_29,DUNI STREET,FAGGE,12.003455,8.529414,2,Installed,2
FAG_39,IBB WAY,FAGGE,12.00420344,8.52489943,14,Installed,2
FAG_88,WAMBAI MARKET ROAD,FAGGE,12.00420344,8.52489943,2,Pending,0
FAG_49,KABOBO STREET,FAGGE,12.00733589,8.525553705,2,Pending,0
FAG_76,S. LAURE STREET,FAGGE,12.00801101,8.524988646,2,Pending,0
FAG_52,KOFAR MAZUGAL ROAD,FAGGE,12.01231829,8.526447032,2,Pending,0
TAR_139,SHEHU MANZOARAI STREET,TARAUNI,12.01338002,8.523212236,2,Pending,0
NAS_10,ABADIE STREET,NASSARAWA,12.01855129,8.52943567,2,Installed,2
FAG_59,NEW ROAD,FAGGE,12.018467,8.529527,2,Installed,3
FAG_25,CHURCH ROAD,FAGGE,12.01593305,8.53249587,2,Installed,1
FAG_68,ONITSHA ROAD,FAGGE,12.01435002,8.532513549,2,Pending,0
FAG_36,GALADIMA STREET,FAGGE,12.010775,8.534677,2,Installed,3
NAS_65,BALARABE MAI KIFI STREET,NASSARAWA,12.0138041,8.533636676,2,Pending,0
NAS_136,HAJIYA SA'A STREET,NASSARAWA,12.01199,8.533357,2,Installed,1
TAR_38,COURT ROAD,TARAUNI,12.014483,8.534677,16,Installed,2
FAG_17,BELLO DAN DAGO ROAD,FAGGE,12.007244,8.532437,2,Installed,2
NAS_16,ABDULLAHI BAYERO ROAD,NASSARAWA,11.993774,8.544438,3,Installed,1
NAS_146,IBRAHIM HARUNA CLOSE,NASSARAWA,11.99440737,8.541051902,1,Installed,1
NAS_246,RABI'U SULAIMAN CLOSE,NASSARAWA,11.99437792849361,8.541771921737638,1,Pending,0
NAS_73,BBY LINK,NASSARAWA,11.99415762,8.543105102,2,Installed,2
NAS_11,ABBA HABIB LINK,NASSARAWA,11.99415761715967,8.543105101544757,2,Pending,0
NAS_130,GIRGIRI LAWAN LINK,NASSARAWA,11.99211091,8.542411463,2,Installed,2
NAS_152,IDRIS UMAR ROAD,NASSARAWA,11.9921109128173,8.542411462596727,2,Pending,0
TAR_132,SANI TRADER STREET,TARAUNI,11.987875,8.539648,2,Installed,2
NAS_131,MAITAMA STREET,NASSARAWA,11.99369365,8.535977338,2,Installed,2
NAS_248,RAILWAY QUARTERS ROAD,NASSARAWA,11.99369365,8.535977338,2,Pending,0
NAS_44,AMINU BABANDI STREET,NASSARAWA,11.99632,8.539354365,2,Installed,2
NAS_295,UMAR MADAHAJI STREET,NASSARAWA,11.99553865,8.540472645,2,Installed,2
NAS_233,MUSA Y MAI KIFI AVENUE,NASSARAWA,11.99553864638583,8.540472645298397,2,Pending,0
NAS_312,YALWAN DANZIAL LINK,NASSARAWA,11.99693043,8.542833036,22,Installed,2
NAS_267,SANUSI DANKAKA STREET,NASSARAWA,11.99693043228001,8.54283303571589,2,Pending,0
NAS_296,UMAR SANUSI STREET,NASSARAWA,11.99629375324764,8.542561916225795,2,Pending,0
TAR_144,SULE DANBATTA STREET,TARAUNI,11.97480263,8.537340337,2,Installed,2
NAS_189,LAWAN NA-ALLAH STREET,NASSARAWA,11.97480263,8.537340337,2,Pending,0
TAR_48,GANDUN ALBASA ROAD,TARAUNI,11.97617972079566,8.533090090575275,2,Pending,0
TAR_111,MUHAMMAD ALI STREET,TARAUNI,11.977067,8.53032,2,Pending,0
TAR_112,MUHAMMAD DANKABO AVENUE,TARAUNI,11.98097198,8.53259112,2,Installed,2
NAS_7,A ISMAIL ADAMU GANO STREET,NASSARAWA,11.98127403,8.533878499,2,Installed,3
TAR_141,SOCIAL INSURANCE ROAD,TARAUNI,11.97817563,8.540660359,2,Installed,2
TAR_166,ZOO ROAD,TARAUNI,11.97140713,8.542502622,10,Installed,2
TAR_110,MUDI ALASAN ROAD,TARAUNI,11.96976137,8.542606866,2,Installed,2
TAR_22,BABBAN LAYI ROAD,TARAUNI,11.96976137,8.542606866,2,Pending,0
TAR_60,HAUSAWA MODEL PRIMARY SCHOOL ROAD,TARAUNI,11.96705682,8.536942153,2,Installed,2
TAR_143,SULE BATSARI AVENUE,TARAUNI,11.96981028,8.536706054,2,Installed,2
TAR_65,ISAH KAITA STREET,TARAUNI,11.96981027865382,8.536706054169986,2,Pending,0
TAR_41,DAN KURA STREET,TARAUNI,11.96685046,8.530215322,2,Installed,2
NAS_301,USMAN YARHIYA LINK,NASSARAWA,11.994813,8.568119,2,Installed,2
NAS_119,GARKO CRESCENT,NASSARAWA,11.99485,8.568253,2,Installed,1
NAS_186,LAWAN ADAMU CLOSE,NASSARAWA,11.994854,8.566735,1,Installed,1
NAS_193,LAYIN MAI GIGINYU STREET,NASSARAWA,11.990213,8.564557,2,Installed,2
NAS_258,SALA KAAPANI ROAD,NASSARAWA,11.99052022359976,8.565063987301652,2,Pending,0
NAS_190,LAYIN ALARAMONA STREET,NASSARAWA,11.988573,8.568028,2,Installed,2
NAS_148,IBRAHIM KALA ROAD,NASSARAWA,11.988674,8.56814,2,Installed,2
NAS_230,MUSA KAUGAMA STREET,NASSARAWA,11.986904,8.566365,2,Installed,2
NAS_253,S/FEGI STREET,NASSARAWA,11.988184,8.570723,2,Installed,2
NAS_285,TRANSFORMER WAY,NASSARAWA,11.985446,8.569505,2,Installed,2
NAS_36,ALHAJI ABDULRASAK SABO STREET,NASSARAWA,11.99385622,8.57215835,2,Pending,0
NAS_93,DAR-ES SALAM STREET,NASSARAWA,11.994656,8.570522,2,Installed,2
FAG_69,OSO CHARITY LINK,FAGGE,11.99524212032231,8.57328812980874,2,Pending,0
FAG_2,ABBA GANA STREET,FAGGE,12.007115,8.525886,2,Installed,2
FAG_78,SANDA MAI BAREWA STREET,FAGGE,12.00744086124983,8.525177705709735,2,Pending,0
FAG_23,BUNA ROAD,FAGGE,12.012237,8.52487,2,Installed,2
NAS_2,12TH STREET,NASSARAWA,11.95367235,8.522900968,2,Installed,3
NAS_3,14TH STREET,NASSARAWA,11.95331897,8.522487553,2,Pending,0
NAS_1,10TH STREET,NASSARAWA,11.95351,8.523716,2,Installed,2
NAS_213,MAL SALEH STREET,NASSARAWA,11.98344756921727,8.581749648386406,2,Pending,0
NAS_155,ISUHU ROBA STREET,NASSARAWA,11.98239080628321,8.582112686909737,2,Pending,0
TAR_98,BALA SHOE SHINER STREET,TARAUNI,11.98184005,8.580200096,2,Pending,0
NAS_126,GIDAN GERO STREET,NASSARAWA,11.98520525830294,8.581861492498836,2,Pending,0
NAS_184,LARABA CLOSE,NASSARAWA,11.9856943,8.582618228,1,Installed,1
NAS_299,UNITY COMPREHENSIVE STREET,NASSARAWA,11.98317949,8.584282433,2,Installed,2
NAS_87,DAN MADARI STREET,NASSARAWA,11.98317948808345,8.584282433110547,2,Pending,0
NAS_63,BAKWA AVENUE,NASSARAWA,12.006003,8.574163,2,Installed,2
NAS_211,MAIDABINO AVENUE,NASSARAWA,12.007189,8.572158,2,Installed,2
NAS_166,DR M SHABA STREET,NASSARAWA,12.008,8.572059,2,Installed,2
NAS_283,TANKO YAKASAI STREET,NASSARAWA,12.006097,8.576755,2,Installed,2
NAS_205,MADU BAKTAMA STREET,NASSARAWA,12.004627,8.572465,2,Installed,2
NAS_172,KUNCHI AVENUE,NASSARAWA,12.00363830970057,8.574991466080805,2,Pending,0
TAR_76,SHEIKH TIJJANI KALARAWI STREET,TARAUNI,12.008713,8.576188,2,Installed,2
NAS_302,UTAI STREET,NASSARAWA,12.0040296094094,8.580419084071682,2,Pending,0
NAS_164,KARAI CLOSE,NASSARAWA,12.01401,8.575959,1,Installed,1
NAS_160,KABO AVENUE,NASSARAWA,12.011964,8.573256,2,Installed,2
TAR_14,ALIYU MODDIBO STREET,TARAUNI,11.97872565,8.559606415,2,Installed,2
TAR_123,RESEARCH LANE,TARAUNI,11.979373,8.558701,2,Installed,2
TAR_7,AHMAD YAKUDIMA STREET,TARAUNI,11.97763768650861,8.553667917268928,2,Pending,0
TAR_109,MOHAMMED MOHAMMED AVENUE,TARAUNI,11.97496389,8.562019444,2,Installed,2
NAS_84,DABO MOHAMMED CLOSE,NASSARAWA,11.99820295,8.555589472,1,Installed,1
NAS_224,MUHAMMED NASIR MUKTAR CLOSE,NASSARAWA,11.999456,8.555511,1,Installed,1
NAS_38,ALI YAKASAI STREET,NASSARAWA,12.00071,8.555341,2,Installed,2
NAS_288,TUKUR LINK,NASSARAWA,12.000671,8.558725,2,Installed,2
NAS_310,YAKUBU BAKO CLOSE,NASSARAWA,11.99702,8.555647,1,Installed,2
TAR_6,AHMED DAKU CRESCENT,TARAUNI,11.99591792,8.550535549,2,Pending,0
NAS_272,SHEIKH AHMED DEEDAT ROAD,NASSARAWA,11.99591792,8.550535549,2,Pending,0
TAR_68,YUSUF MAITAMA SULE ROAD,TARAUNI,11.99223550895942,8.549723509007176,2,Pending,0
NAS_226,MURTALA MOHAMMED WAY,NASSARAWA,12.012336,8.526393,15,Installed,2
NAS_286,TSAUNA CLOSE,NASSARAWA,12.004779,8.558677783,1,Installed,1
NAS_304,WADA ALIYU CRESCENT,NASSARAWA,12.00267885,8.564103769,2,Pending,0
NAS_298,UNGOGO ROAD,NASSARAWA,12.00651276046151,8.557430941796,2,Pending,0
FAG_30,DURBIN KATSINA ROAD,FAGGE,12.006396,8.563399,2,Installed,2
TAR_36,CBN QUARTERS ROAD,TARAUNI,11.96433587,8.563100633,2,Installed,2
TAR_61,HON. SIDI HAMID ALI STREET,TARAUNI,11.96433587,8.563100633,2,Installed,3
TAR_120,PANDAUDU STREET,TARAUNI,11.96420035757899,8.562209688322993,2,Pending,0
TAR_57,HANGA AVENUE,TARAUNI,11.96601413012366,8.566444697781582,2,Pending,0
NAS_284,TONKU AVENUE,NASSARAWA,11.96469447500913,8.568506101226873,2,Pending,0
TAR_53,GUDA ABDULLAHI ROAD,TARAUNI,11.968845,8.553248,2,Installed,2
TAR_79,BARRISTER STREET,TARAUNI,11.96815225984685,8.55654018550984,2,Pending,0
TAR_114,MUSA GWADABE STREET,TARAUNI,11.966256,8.557395,2,Installed,2
TAR_69,JAKADAN GARKO STREET,TARAUNI,11.963893,8.556895,2,Installed,2
TAR_160,YAN KIFI STREET,TARAUNI,11.97078755585646,8.556206513703621,2,Pending,0
NAS_191,LAYIN DILLALIYA STREET,NASSARAWA,11.97145089700783,8.556618044295401,2,Pending,0
TAR_86,LAYIN MAI SODA STREET,TARAUNI,11.97145089700783,8.556618044295401,2,Pending,0
TAR_95,MAIDUGURI ROAD,TARAUNI,11.96697,8.551421,26,Installed,2
TAR_51,GIDAN GIWA STREET,TARAUNI,11.968521,8.549793,2,Installed,2
TAR_105,MANSUR KANKAROFI STREET,TARAUNI,11.96762293187829,8.547450690693704,2,Pending,0
TAR_140,SHUAIBU MAI-GORO STREET,TARAUNI,11.970544,8.548043,2,Installed,2
NAS_132,ABDULLAHI KIRKI STREET,NASSARAWA,11.971279,8.544397,2,Installed,2
NAS_221,MOHAMMED VICE ADAMU ROAD,NASSARAWA,11.980106,8.569864,2,Installed,2
NAS_122,GAWO AVENUE,NASSARAWA,11.97104181295657,8.570899260934628,2,Pending,0
NAS_137,HALLIRU ROAD,NASSARAWA,11.97132,8.5759223,2,Installed,2
NAS_140,HOTORO AVENUE,NASSARAWA,11.975777,8.573778,2,Installed,2
FAG_62,NORTHWEST UNIVERSITY ROAD,FAGGE,12.03179698,8.496173624,2,Installed,2
FAG_47,ISAH AMINU KANO STREET,FAGGE,11.961095,8.536085,2,Pending,0
TAR_66,ISAH WAZIRI ROAD,TARAUNI,11.95198485,8.537317069,9,Installed,2
FAG_66,OLD COURT ROAD,FAGGE,12.025643,8.536195,2,Installed,2
FAG_1,ABARABA STREET,FAGGE,12.029617,8.533699,2,Installed,2
FAG_93,YOLA STREET,FAGGE,12.026479,8.536214,2,Installed,2
FAG_35,FESTING ROAD,FAGGE,12.018404,8.529424,2,Installed,2
FAG_7,ADUA ROAD,FAGGE,12.019305,8.542417,2,Installed,2
TAR_2,ABDULLAHI MAI GARI STREET,TARAUNI,11.94202045,8.55784802,2,Pending,0
TAR_100,MAL. BABA STREET,TARAUNI,11.94291129,8.559993917,2,Pending,0
NAS_6,A D TITIMA STREET,NASSARAWA,11.946583,8.557922,2,Installed,2
NAS_41,ALMANSUR CRESCENT,NASSARAWA,11.94624352,8.55386233,2,Pending,0
TAR_157,YAKUBU UMAR STREET,TARAUNI,11.939342,8.557006,2,Installed,1
TAR_154,WESTERN BYPASS,TARAUNI,11.914852,8.554973,2,Installed,2
NAS_90,DANJUMA ALI GARKO LINE,NASSARAWA,11.93683056,8.55684518,2,Installed,2
TAR_151,UNGUWA UKU ROAD,TARAUNI,11.95018476,8.565481567,2,Installed,2
TAR_93,MAI UNGUWA STREET,TARAUNI,11.95198485,8.537317069,2,Installed,2
NAS_5,18TH STREET,NASSARAWA,8.51995006,11.95345337,2,Pending,0
TAR_94,MAI UNGUWA TELA STREET,TARAUNI,11.95716415,8.541973322,2,Installed,2
NAS_105,EASTERN BYPASS,NASSARAWA,8.59094620725971,11.9578649316351,2,Pending,0
TAR_77,KWANAR SABO ROAD,TARAUNI,8.558519444,11.95905278,2,Pending,0
TAR_90,LIMAWA ROAD,TARAUNI,8.572011214,11.96496483,2,Pending,0
TAR_18,ATIKU ABUBAKAR ROAD,TARAUNI,11.96685046,8.530215322,2,Installed,2
TAR_49,GEN. T. Y. DANJUMA STREET,TARAUNI,8.566742167,11.96830455,2,Pending,0
TAR_130,SANI LAWAN KOFAR MATA STREET,TARAUNI,8.555189096,11.96895346,2,Pending,0
TAR_150,UMARU MUHAMMAD STREET,TARAUNI,8.5638144714236,11.9692608398472,2,Pending,0
NAS_141,HOTORO CIKIN GARI STREET,NASSARAWA,8.586969953,11.96964384,2,Pending,0
TAR_50,GIDADO IDRIS AVENUE,TARAUNI,8.56183762912515,11.9729545432209,2,Pending,0
TAR_124,RIBADU ROAD,TARAUNI,11.97411308,8.540237167,2,Installed,2
TAR_148,TUKURA AVENUE,TARAUNI,11.97683135,8.549425256,2,Installed,1
TAR_27,BASHIR DALHATU AVENUE,TARAUNI,8.570667,11.976966,2,Pending,0
NAS_48,ANNAJAT STREET,NASSARAWA,8.578761382,11.9829815,2,Pending,0
NAS_201,M.D HASSAN STREET,NASSARAWA,8.566122304,11.98344156,2,Pending,0
NAS_183,LARABA ABASAWA ROAD,NASSARAWA,11.98472698,8.586025012,2,Installed,2
NAS_197,LINK ROAD,NASSARAWA,8.560242925,11.98568576,2,Pending,0
TAR_165,ZARIA ROAD,TARAUNI,11.98687202,8.5331379,23,Installed,2
NAS_108,ENGR. HABU GUMEL STREET,NASSARAWA,8.566157704,11.9886231,2,Pending,0
NAS_231,MUSA T WADA LINK,NASSARAWA,8.57047465391708,11.9958626656864,2,Pending,0
NAS_91,DANKULI LINK,NASSARAWA,8.581662802,11.99593288,2,Pending,0
NAS_200,M. JAMO STREET,NASSARAWA,8.562120974,11.99752651,2,Pending,0
NAS_247,RACE COURSE ROAD,NASSARAWA,11.99993972,8.555373708,11,Installed,2
NAS_103,DUTSE CLOSE,NASSARAWA,8.54937318093302,12.0001253158746,1,Pending,0
NAS_149,IBRAHIM NATSUGUNNE ROAD,NASSARAWA,8.565442242,12.00122185,2,Pending,0
NAS_139,HOSPITAL LINK,NASSARAWA,12.00166356,8.544258638,2,Installed,1
FAG_85,TAFAWA BALEWA WAY,FAGGE,8.544133465,12.00446408,2,Pending,0
NAS_47,ANAMBRA STREET,NASSARAWA,8.578192962,12.00496662,2,Pending,0
FAG_12,AMMANI INUWA STREET,FAGGE,8.5305224577802,12.0067308448507,2,Pending,0
FAG_70,P.Z. ROAD,FAGGE,8.542428,12.007548,2,Pending,0
FAG_6,ADO BAYERO ROAD,FAGGE,8.536745782,12.01041197,2,Pending,0
FAG_21,GUMEL ROAD,FAGGE,8.565778,12.012776,2,Pending,0
NAS_85,DAKATA POLICE STATION ROAD,NASSARAWA,8.57741280994206,12.0143600839524,2,Pending,0
NAS_210,MAI MALARI ROAD,NASSARAWA,8.574196,12.017682,2,Pending,0
FAG_13,AP ROAD,FAGGE,8.547543,12.024664,2,Pending,0
FAG_73,PEACE ESTATE STREET,FAGGE,8.51502584853715,12.0286532683684,2,Pending,0
FAG_14,ASHTON ROAD,FAGGE,8.516642386,12.03324042,2,Pending,0
FAG_58,NEW AIRPORT ROAD,FAGGE,8.52205320692318,12.0405233668563,2,Pending,0
FAG_50,KATSINA ROAD,FAGGE,8.46831561748173,12.0626829224858,2,Pending,0
NAS_33,AJASSA MAIN ROAD,NASSARAWA,8.534587,11.9927924,2,Pending,0
TAR_31,BELLO AHMED YAKASAI LINK,TARAUNI,8.560151,11.965999,2,Pending,0
FAG_27,DANLAMI YARADUE STREET,FAGGE,8.5773845,11.9939369,2,Pending,0
FAG_94,ABBATOIR ROAD,FAGGE,12.011826,8.520723,2,Pending,0
NAS_325,ABDUL'AZIZ HARUNA CLOSE,NASSARAWA,11.98573844,8.583746399,1,Pending,0
NAS_326,ABDULLAHI LINK,NASSARAWA,11.99406272,8.558406038,2,Pending,0
NAS_327,ABDULLAHI MAI GARI ROAD,NASSARAWA,11.94202045,8.55784802,2,Pending,0
NAS_328,ADAMU DUTSE STREET,NASSARAWA,12.01507467,8.578924649,2,Pending,0
NAS_329,AHMADIYYA LINE,NASSARAWA,12.029553,8.539286,2,Pending,0
FAG_95,ALH DALHA USMAN STREET,FAGGE,12.00741913,8.577831902,2,Pending,0
NAS_330,ALH SAMAILA MUKHTAR STREET,NASSARAWA,12.01634234,8.582849498,2,Pending,0
FAG_96,ALH. SAIDU AL AMURA STREET,FAGGE,11.97423156,8.580582017,2,Pending,0
NAS_331,ALI KALOMA STREET,NASSARAWA,12.00041036,8.550971507,2,Pending,0
FAG_97,AMINU MUDI STREET,FAGGE,12.0059327,8.578976918,2,Pending,0
NAS_332,ANNUR HOSPITAL ROAD,NASSARAWA,11.97775774,8.543850591,2,Pending,0
FAG_98,APPLE AVENUE,FAGGE,12.027628,8.531821,2,Pending,0
NAS_333,ARAKAN LINK,NASSARAWA,12.00208019,8.548143524,2,Pending,0
FAG_99,AREWA LINK,FAGGE,11.996235,8.583107,2,Pending,0
FAG_100,ARI AVENUE,FAGGE,12.007993,8.525058,2,Pending,0
FAG_101,ARO CHUKWU LINK,FAGGE,12.01390129,8.584031059,2,Pending,0
TAR_167,BABA MAI TUMAKI STREET,TARAUNI,11.97684858,8.579929038,2,Pending,0
FAG_102,BARD ROAD,FAGGE,12.020088,8.544689,2,Pending,0
NAS_334,BARR MUSTAPHA ALIYU STREET,NASSARAWA,11.97117,8.555137,2,Pending,0
FAG_103,BELA ROAD,FAGGE,12.021998,8.577337,2,Pending,0
FAG_104,BELLO RASHA STREET,FAGGE,11.96740936,8.549532118,2,Pending,0
NAS_335,BOLU ROAD,NASSARAWA,11.990008,8.545412,2,Pending,0
TAR_168,BUHARI QUARTERS CLOSE,TARAUNI,12.00987414,8.571980598,1,Pending,0
FAG_105,CENTRE LANE,FAGGE,11.98067,8.555578,2,Pending,0
FAG_106,CHAIRMAN STREET,FAGGE,11.928683,8.552762,2,Pending,0
FAG_107,CHEDIYA UKU ROAD,FAGGE,12.028504,8.539822,2,Pending,0
FAG_108,CINEMA ROAD,FAGGE,12.018267,8.544099,2,Pending,0
NAS_336,COLONEL DAUDU ROAD,NASSARAWA,11.97380656,8.58473043,2,Pending,0
NAS_337,DAKATA ROAD,NASSARAWA,12.011393,8.5834,2,Pending,0
NAS_338,DALHA USMAN STREET,NASSARAWA,12.010837,8.581944,2,Pending,0
NAS_339,DANBATTA STREET EXTENSION,NASSARAWA,12.0078103,8.5754757,2,Pending,0
NAS_340,DARUL SUNNAH STREET,NASSARAWA,11.9399496,8.5613352,2,Pending,0
NAS_341,DAWAKI ROAD,NASSARAWA,11.99086916,8.555827641,1,Pending,0
FAG_109,DELIBE STREET,FAGGE,11.994554,8.581665,2,Pending,0
NAS_342,ENGINEER MANSUR LINK,NASSARAWA,11.9801103,8.582772837,2,Pending,0
NAS_343,FARIN GIDA STREET,NASSARAWA,11.97137,8.555382,2,Pending,0
NAS_344,FARMLAND STREET,NASSARAWA,11.9848539,8.5702532,2,Pending,0
NAS_345,G M RINGIM STREET,NASSARAWA,11.99577283,8.57497649,2,Pending,0
FAG_110,GANIYU BELLO AVENUE,FAGGE,12.028866,8.539297,2,Pending,0
FAG_111,GARBA YAGAI STREET,FAGGE,11.97740427,8.559387028,2,Pending,0
NAS_346,GAYA ROAD,NASSARAWA,12.01171986,8.551021848,2,Pending,0
FAG_112,GIDAN MAGGI STREET,FAGGE,12.014221,8.53616,2,Pending,0
FAG_113,GIDAN MILO STREET,FAGGE,12.01425,8.537015,2,Pending,0
TAR_169,GYADI - GYADI ROAD,TARAUNI,11.96854205,8.545208373,2,Pending,0
TAR_170,HABIB GWARZO ROAD,TARAUNI,11.97397287,8.5829235,2,Pending,0
TAR_171,HAMA ABDULLAH ROAD,TARAUNI,11.981581,8.5549361,2,Pending,0
NAS_347,HOTORO AREWA SABON FEGI STREET,NASSARAWA,11.97292537,8.585478125,2,Pending,0
NAS_348,IBRAHIM SALISU STREET,NASSARAWA,12.008664,8.572061,2,Pending,0
FAG_114,JAMB CENTER ROAD,FAGGE,11.9389073,8.5550635,2,Pending,0
NAS_350,KABIRU GAYA STREET,NASSARAWA,11.97490652,8.577829839,2,Pending,0
NAS_351,KABIRU SANDA ROAD,NASSARAWA,11.9761785,8.5590714,2,Pending,0
NAS_352,KANGA ROAD,NASSARAWA,12.00099628,8.544995214,2,Pending,0
TAR_172,KARKASARA JANBULO STREET,TARAUNI,11.9526558,8.5398842,2,Pending,0
FAG_115,KEFFI STREET,FAGGE,12.031185,8.538202,2,Pending,0
FAG_116,KUNDILA ROAD,FAGGE,12.020506,8.566724,2,Pending,0
NAS_353,LABARA HOTORO STREET,NASSARAWA,11.99160769,8.585311658,2,Pending,0
NAS_354,LADANAI GRA GENIUS ACADEMY STREET,NASSARAWA,11.9873007,8.5892835,2,Pending,0
TAR_173,LAYIN ABACHA STREET,TARAUNI,12.010462,8.537837,2,Pending,0
TAR_174,LAYIN HARU STREET,TARAUNI,11.93855679,8.555333744,2,Pending,0
TAR_175,LAYIN ZANA STREET,TARAUNI,11.993531,8.580378,2,Pending,0
FAG_117,LITI CHAIRMAN STREET,FAGGE,12.00213,8.529231,2,Pending,0
NAS_355,MAITAMA SULE ROAD,NASSARAWA,11.99500243,8.548476003,2,Pending,0
TAR_176,MAKARANTA ROAD,TARAUNI,11.97544945,8.574808164,2,Pending,0
FAG_118,MARKET ROAD,FAGGE,12.027008,8.537764,2,Pending,0
NAS_356,MINJIBIR STREET,NASSARAWA,11.998323,8.566284,2,Pending,0
NAS_357,MUBARAK U FAROUK STREET,NASSARAWA,11.9950434,8.577101878,2,Pending,0
NAS_358,MUHAMMAD HUDU STREET,NASSARAWA,12.01123,8.581533,2,Pending,0
NAS_359,MUHD GWARZO AVENUE,NASSARAWA,11.97198073,8.582363466,2,Pending,0
NAS_360,MUNDUBAWA AVENUE,NASSARAWA,12.006247,8.56121,2,Pending,0
TAR_177,NA'IBAWA ROAD,TARAUNI,11.934165,8.557441,2,Pending,0
NAS_361,NUHU ALPHA ROAD,NASSARAWA,11.97995397,8.554812151,2,Pending,0
FAG_119,OKENE ROAD,FAGGE,12.027523,8.534603,2,Pending,0
FAG_120,OLD CEMETARY ROAD,FAGGE,12.020321,8.554176,2,Pending,0
NAS_362,FAROUK GARKO STREET,NASSARAWA,11.97386561,8.57766139,2,Pending,0
FAG_121,HALIMA MAI TANGARAN STREET,FAGGE,11.97463779,8.578881973,2,Pending,0
FAG_122,OWODUNNI AVENUE,FAGGE,12.0058298,8.5731589,2,Pending,0
NAS_363,POLICE BARACK ROAD,NASSARAWA,12.00779057,8.556433224,2,Pending,0
NAS_364,RINGIM ROAD,NASSARAWA,12.005996,8.52691,2,Pending,0
NAS_365,RUKAYYA DAWAYYA CLOSE,NASSARAWA,11.98405936,8.583415414,2,Pending,0
NAS_366,RUKAYYA DAWAYYA STREET,NASSARAWA,11.98550048,8.582702233,2,Pending,0
TAR_179,SANI BELLO STREET,TARAUNI,12.022695,8.551603,2,Pending,0
NAS_367,SANI HASHIM STREET,NASSARAWA,11.97189875,8.579796811,2,Pending,0
TAR_180,SHUAIBU KAZAURE STREET,TARAUNI,11.973351,8.570064,2,Pending,0
TAR_181,SHATIMA ROAD,TARAUNI,12.009396,8.523858,2,Pending,0
FAG_123,SHELL ROAD,FAGGE,12.023282,8.544144,2,Pending,0
TAR_182,SHUAIBU MAI ROGO STREET,TARAUNI,11.96955205,8.54683806,2,Pending,0
FAG_124,ST. LOUIS ROAD,FAGGE,12.01200534,8.560233593,2,Pending,0
NAS_368,SULAIMAN GEZAWA ROAD,NASSARAWA,12.020517,8.555907,2,Pending,0
NAS_369,SULAIMAN CRESCENT CLOSE,NASSARAWA,12.0026348,8.566842028,2,Pending,0
NAS_370,TAURA LINK,NASSARAWA,11.96926,8.576397,2,Pending,0
NAS_371,TIJJANI HASHIM LINK,NASSARAWA,11.995163,8.543822,2,Pending,0
TAR_183,TSAMIYAR BOKA STREET,TARAUNI,11.97441829,8.578879251,2,Pending,0
TAR_184,UDB ROAD,TARAUNI,11.98087706,8.566271881,2,Pending,0
TAR_185,UMAR GARKUWAN MINJIBIR ROAD,TARAUNI,11.98912933,8.569376587,2,Pending,0
NAS_372,UMARU DAN AZUMI STREET,NASSARAWA,12.010928,8.584767,2,Pending,0
FAG_125,WAPA ROAD,FAGGE,12.010057,8.523307,2,Pending,0
FAG_126,WREKKA ROAD,FAGGE,11.98591722,8.568032292,2,Pending,0
TAR_186,WUDIL ROAD,TARAUNI,11.98605132,8.551032827,2,Pending,0
TAR_187,YAHAYA KANSILA ROAD,TARAUNI,12.0072932,8.5613107,2,Pending,0
NAS_373,YAHAYA MUHAMMAD KYABO AVENUE,NASSARAWA,11.99741957,8.572083066,2,Pending,0
NAS_374,YAR GAYA STREET,NASSARAWA,12.020522,8.556653,2,Pending,0
NAS_375,YUSUF KWARI STREET,NASSARAWA,11.993065,8.570471,2,Pending,0
FAG_127,YUSUFU ROAD,FAGGE,12.00982672,8.566274296,2,Pending,0
NAS_376,ZAREWA AVENUE,NASSARAWA,12.0111269,8.575094,2,Pending,0
TAR_188,ZARIA AVENUE,TARAUNI,12.01454,8.543663,2,Pending,0
NAS_377,BAKATSINA STREET,NASSARAWA,11.99235,8.55228,2,Pending,0
FAG_128,ABA ROAD,FAGGE,8.536643683,12.02367992,2,Pending,0
NAS_378,ADAMU AFFA STREET,NASSARAWA,8.573397423,12.01128476,2,Pending,0
NAS_379,ADO KILA STREET,NASSARAWA,8.580252216,11.97503669,2,Pending,0
NAS_380,ADO TELA STREET,NASSARAWA,8.575744099,11.98055576,2,Pending,0
NAS_381,AHMAD MARSHAL STREET,NASSARAWA,8.580135232,11.97313624,2,Pending,0
NAS_382,ALH IDRIS ISA LINK,NASSARAWA,8.588810293,11.98345708,2,Pending,0
NAS_383,ALH SABO ZANGO STREET,NASSARAWA,8.575373303,11.99377882,2,Pending,0
NAS_384,ALH SAIDU AL AMURA STREET,NASSARAWA,8.57835695,11.97429758,2,Pending,0
NAS_385,ALHAJI ALA LINK,NASSARAWA,8.569765557,11.98867748,2,Pending,0
NAS_386,APEX BRIDGE SCHOOL STREET,NASSARAWA,8.591296063,11.98662839,2,Pending,0
NAS_387,AUDU MAI BUZAYE STREET,NASSARAWA,8.576848518,11.98126774,2,Pending,0
NAS_388,AUDU NAMAMA STREET,NASSARAWA,8.574413866,12.01141889,2,Pending,0
FAG_129,BABAN KWARAI ROAD,FAGGE,8.56913769,11.99648043,2,Pending,0
NAS_389,BAFFA DAN'AZUMI STREET,NASSARAWA,8.573560787,12.01308017,2,Pending,0
NAS_390,BALARABE HAMZA STREET,NASSARAWA,8.533252201,12.01309966,2,Pending,0
NAS_391,BARR. RILWANU UMAR STREET,NASSARAWA,8.591108893,11.98751386,2,Pending,0
NAS_392,BELLO RINGIM LINK,NASSARAWA,8.589361243,11.98358933,2,Pending,0
NAS_393,BOMPAI GRA MUNDUBAWA ROAD,NASSARAWA,8.561137814,12.00907689,2,Pending,0
NAS_394,CAPT ABDULLAHI LINK,NASSARAWA,8.578021788,11.99616528,2,Pending,0
NAS_395,DASO LINK,NASSARAWA,8.588408544,11.98354479,2,Pending,0
NAS_396,DR ALI IDI LINK,NASSARAWA,8.57391396,11.99499575,2,Pending,0
NAS_397,GARBA ISA STREET,NASSARAWA,8.584678181,12.00775156,2,Pending,0
NAS_398,GIDAN DORAWA STREET,NASSARAWA,8.574019387,12.00949828,2,Pending,0
NAS_399,GIDAN MALAM STREET,NASSARAWA,8.570250131,12.00947301,2,Pending,0
NAS_400,GODI STREET,NASSARAWA,8.571842245,11.98766883,2,Pending,0
TAR_189,GYADI-GYADI PRIMARY SCHOOL ROAD = SAMBO STREET,TARAUNI,8.544273775,11.96705557,2,Pending,0
NAS_401,HABIBA MAI GADO STREET,NASSARAWA,8.580073351,11.98384121,2,Pending,0
NAS_402,HABIBU BREAK STREET,NASSARAWA,8.575501794,11.98092404,2,Pending,0
NAS_403,IBRAHIM KALLA STREET,NASSARAWA,8.56542905,11.98934073,2,Pending,0
NAS_404,INJIN AMADU STREET,NASSARAWA,8.576360775,11.98151904,2,Pending,0
NAS_405,ISA DUTSE ROAD,NASSARAWA,8.563282828,12.01494814,2,Pending,0
NAS_406,ISAH KASINO STREET,NASSARAWA,8.577375966,11.98215096,2,Pending,0
NAS_407,ISHAQ RABI'U AVENUE,NASSARAWA,8.576908658,12.01429988,2,Pending,0
NAS_408,KHALID SHETTIMA STREET,NASSARAWA,8.593020906,11.99118734,2,Pending,0
NAS_409,KHAMIS MUSA SHEHU STREET,NASSARAWA,8.591059391,11.98806546,2,Pending,0
NAS_410,LAYIN CUSTOM STREET,NASSARAWA,8.591343586,11.97568729,2,Pending,0
NAS_411,LAYIN SOJA STREET,NASSARAWA,8.578395722,11.9841631,2,Pending,0
NAS_412,M. NAYAYA STREET,NASSARAWA,8.592839754,11.98742456,2,Pending,0
NAS_413,MAL SUYUDI STREET,NASSARAWA,8.591850158,11.99085437,2,Pending,0
NAS_414,I. MASAMA CLOSE,NASSARAWA,8.563453975,11.98149174,1,Pending,0
NAS_415,MOHAMMADU ALI SIDI STREET,NASSARAWA,8.581569036,11.97573167,2,Pending,0
NAS_416,MUHAMMADU FILA STREET,NASSARAWA,8.581424195,11.97509715,2,Pending,0
NAS_417,NURA MAJIYA STREET,NASSARAWA,8.591677944,11.98879658,2,Pending,0
NAS_418,PROMISE STREET,NASSARAWA,8.580840889,11.98427273,2,Pending,0
NAS_419,SAIDU GARDO STREET,NASSARAWA,8.581122909,11.97725909,2,Pending,0
NAS_420,SANI IDI DANFULANI STREET,NASSARAWA,8.574944515,11.99350498,2,Pending,0
NAS_421,SANKOREE STREET,NASSARAWA,8.567567897,11.9950718,2,Pending,0
NAS_422,SANI HASSAN STREET,NASSARAWA,8.584453873,12.00749635,2,Pending,0
NAS_423,YAKUBU MAI GIDAN KARGO STREET,NASSARAWA,8.578937999,11.97540744,2,Pending,0
NAS_324.1,HOSPITAL ROAD,NASSARAWA,8.54892,11.99742,7,Pending,0
NAS_245,R&B BAKERY STREET,NASSARAWA,8.583973,11.98505,2,Pending,0
